# miramar rd - gprmc speed for first 17 seconds around 5 knots 
# then starts ramping up to 67 and then holds it at 67 for 15 seconds
$GPRMC,165323.000,A,3253.6324,N,11707.1596,W,5.00,270.73,160617,,*18
$GPGGA,165323.000,3253.6324,N,11707.1596,W,1,11,0.8,156.4,M,-35.3,M,,0000*67
$GPRMC,165324.000,A,3253.6324,N,11707.1595,W,5.00,270.73,160617,,*1C
$GPGGA,165324.000,3253.6324,N,11707.1595,W,1,11,0.8,156.4,M,-35.3,M,,0000*63
$GPRMC,165325.000,A,3253.6324,N,11707.1595,W,5.00,270.73,160617,,*1D
$GPGGA,165325.000,3253.6324,N,11707.1595,W,1,11,0.8,156.4,M,-35.3,M,,0000*62
$GPRMC,165326.000,A,3253.6325,N,11707.1595,W,5.00,270.73,160617,,*1F
$GPGGA,165326.000,3253.6325,N,11707.1595,W,1,11,0.8,156.4,M,-35.3,M,,0000*60
$GPRMC,165327.000,A,3253.6325,N,11707.1595,W,5.00,270.73,160617,,*1E
$GPGGA,165327.000,3253.6325,N,11707.1595,W,1,11,0.8,156.4,M,-35.3,M,,0000*61
$GPRMC,165328.000,A,3253.6325,N,11707.1595,W,5.00,270.73,160617,,*11
$GPGGA,165328.000,3253.6325,N,11707.1595,W,1,11,0.8,156.4,M,-35.3,M,,0000*6E
$GPRMC,165329.000,A,3253.6325,N,11707.1594,W,5.00,270.73,160617,,*11
$GPGGA,165329.000,3253.6325,N,11707.1594,W,1,11,0.8,156.4,M,-35.3,M,,0000*6E
$GPRMC,165330.000,A,3253.6325,N,11707.1594,W,5.00,270.73,160617,,*19
$GPGGA,165330.000,3253.6325,N,11707.1594,W,1,11,0.8,156.4,M,-35.3,M,,0000*66
$GPRMC,165331.000,A,3253.6325,N,11707.1594,W,5.00,270.73,160617,,*18
$GPGGA,165331.000,3253.6325,N,11707.1594,W,1,11,0.8,156.4,M,-35.3,M,,0000*67
$GPRMC,165332.000,A,3253.6325,N,11707.1594,W,5.00,270.73,160617,,*1B
$GPGGA,165332.000,3253.6325,N,11707.1594,W,1,11,0.8,156.4,M,-35.3,M,,0000*64
$GPRMC,165333.000,A,3253.6325,N,11707.1594,W,5.00,270.73,160617,,*1A
$GPGGA,165333.000,3253.6325,N,11707.1594,W,1,11,0.8,156.4,M,-35.3,M,,0000*65
$GPRMC,165334.000,A,3253.6326,N,11707.1593,W,5.00,270.73,160617,,*19
$GPGGA,165334.000,3253.6326,N,11707.1593,W,1,11,0.8,156.4,M,-35.3,M,,0000*66
$GPRMC,165335.000,A,3253.6326,N,11707.1593,W,5.00,270.73,160617,,*18
$GPGGA,165335.000,3253.6326,N,11707.1593,W,1,11,0.8,156.4,M,-35.3,M,,0000*67
$GPRMC,165336.000,A,3253.6326,N,11707.1593,W,5.00,270.73,160617,,*1B
$GPGGA,165336.000,3253.6326,N,11707.1593,W,1,11,0.8,156.4,M,-35.3,M,,0000*64
$GPRMC,165337.000,A,3253.6326,N,11707.1595,W,5.00,270.73,160617,,*1C
$GPGGA,165337.000,3253.6326,N,11707.1595,W,1,11,0.8,156.4,M,-35.3,M,,0000*63
$GPRMC,165338.000,A,3253.6326,N,11707.1597,W,5.00,270.73,160617,,*11
$GPGGA,165338.000,3253.6326,N,11707.1597,W,1,11,0.8,156.4,M,-35.3,M,,0000*6E
$GPRMC,165339.000,A,3253.6326,N,11707.1598,W,5.59,270.73,160617,,*13
$GPGGA,165339.000,3253.6326,N,11707.1598,W,1,11,0.8,156.4,M,-35.3,M,,0000*60
$GPRMC,165340.000,A,3253.6326,N,11707.1604,W,5.59,268.70,160617,,*1C
$GPGGA,165340.000,3253.6326,N,11707.1604,W,1,11,0.8,156.3,M,-35.3,M,,0000*6F
$GPRMC,165341.000,A,3253.6326,N,11707.1619,W,6.70,268.54,160617,,*17
$GPGGA,165341.000,3253.6326,N,11707.1619,W,1,11,0.8,156.3,M,-35.3,M,,0000*62
$GPRMC,165342.000,A,3253.6325,N,11707.1648,W,10.69,267.49,160617,,*2F
$GPGGA,165342.000,3253.6325,N,11707.1648,W,1,11,0.8,156.2,M,-35.3,M,,0000*67
$GPRMC,165343.000,A,3253.6323,N,11707.1689,W,13.68,266.51,160617,,*2F
$GPGGA,165343.000,3253.6323,N,11707.1689,W,1,11,0.8,156.2,M,-35.3,M,,0000*6D
$GPRMC,165344.000,A,3253.6321,N,11707.1739,W,16.46,268.37,160617,,*27
$GPGGA,165344.000,3253.6321,N,11707.1739,W,1,11,0.8,156.0,M,-35.3,M,,0000*60
$GPRMC,165345.000,A,3253.6320,N,11707.1798,W,19.00,270.47,160617,,*2F
$GPGGA,165345.000,3253.6320,N,11707.1798,W,1,11,0.8,155.9,M,-35.3,M,,0000*61
$GPRMC,165346.000,A,3253.6321,N,11707.1865,W,21.42,270.62,160617,,*2A
$GPGGA,165346.000,3253.6321,N,11707.1865,W,1,11,0.8,155.8,M,-35.3,M,,0000*6F
$GPRMC,165347.000,A,3253.6321,N,11707.1940,W,23.77,270.26,160617,,*29
$GPGGA,165347.000,3253.6321,N,11707.1940,W,1,11,0.8,155.6,M,-35.3,M,,0000*66
$GPRMC,165348.000,A,3253.6321,N,11707.2023,W,25.94,269.79,160617,,*20
$GPGGA,165348.000,3253.6321,N,11707.2023,W,1,11,0.8,155.4,M,-35.3,M,,0000*64
$GPRMC,165349.000,A,3253.6321,N,11707.2112,W,28.04,269.76,160617,,*29
$GPGGA,165349.000,3253.6321,N,11707.2112,W,1,11,0.8,155.2,M,-35.3,M,,0000*60
$GPRMC,165350.000,A,3253.6321,N,11707.2209,W,29.94,269.41,160617,,*24
$GPGGA,165350.000,3253.6321,N,11707.2209,W,1,11,0.8,154.9,M,-35.3,M,,0000*6B
$GPRMC,165351.000,A,3253.6320,N,11707.2311,W,31.52,269.18,160617,,*23
$GPGGA,165351.000,3253.6320,N,11707.2311,W,1,11,0.8,154.7,M,-35.3,M,,0000*6D
$GPRMC,165352.000,A,3253.6318,N,11707.2416,W,31.63,269.08,160617,,*28
$GPGGA,165352.000,3253.6318,N,11707.2416,W,1,11,0.8,154.5,M,-35.3,M,,0000*67
$GPRMC,165353.000,A,3253.6317,N,11707.2521,W,31.81,269.35,160617,,*21
$GPGGA,165353.000,3253.6317,N,11707.2521,W,1,11,0.8,154.2,M,-35.3,M,,0000*6B
$GPRMC,165354.000,A,3253.6316,N,11707.2628,W,32.29,269.36,160617,,*2F
$GPGGA,165354.000,3253.6316,N,11707.2628,W,1,11,0.8,154.0,M,-35.3,M,,0000*65
$GPRMC,165355.000,A,3253.6315,N,11707.2735,W,32.46,269.24,160617,,*2A
$GPGGA,165355.000,3253.6315,N,11707.2735,W,1,11,0.8,153.7,M,-35.3,M,,0000*6A
$GPRMC,165356.000,A,3253.6314,N,11707.2843,W,32.33,269.47,160617,,*21
$GPGGA,165356.000,3253.6314,N,11707.2843,W,1,11,0.8,153.5,M,-35.3,M,,0000*64
$GPRMC,165357.000,A,3253.6313,N,11707.2950,W,32.14,269.65,160617,,*21
$GPGGA,165357.000,3253.6313,N,11707.2950,W,1,11,0.8,153.3,M,-35.3,M,,0000*67
$GPRMC,165358.000,A,3253.6312,N,11707.3056,W,31.91,269.70,160617,,*2B
$GPGGA,165358.000,3253.6312,N,11707.3056,W,1,11,0.8,153.0,M,-35.3,M,,0000*64
$GPRMC,165359.000,A,3253.6312,N,11707.3162,W,31.67,269.53,160617,,*24
$GPGGA,165359.000,3253.6312,N,11707.3162,W,1,11,0.8,152.8,M,-35.3,M,,0000*6A
$GPRMC,165400.000,A,3253.6311,N,11707.3265,W,33.79,269.07,160617,,*27
$GPGGA,165400.000,3253.6311,N,11707.3265,W,1,11,0.8,152.7,M,-35.3,M,,0000*69
$GPRMC,165401.000,A,3253.6309,N,11707.3366,W,35.76,268.97,160617,,*22
$GPGGA,165401.000,3253.6309,N,11707.3366,W,1,11,0.8,152.5,M,-35.3,M,,0000*61
$GPRMC,165402.000,A,3253.6308,N,11707.3464,W,37.60,269.35,160617,,*2B
$GPGGA,165402.000,3253.6308,N,11707.3464,W,1,11,0.8,152.3,M,-35.3,M,,0000*60
$GPRMC,165403.000,A,3253.6307,N,11707.3563,W,39.03,269.51,160617,,*2C
$GPGGA,165403.000,3253.6307,N,11707.3563,W,1,11,0.8,152.2,M,-35.3,M,,0000*69
$GPRMC,165404.000,A,3253.6306,N,11707.3665,W,41.24,269.56,160617,,*2C
$GPGGA,165404.000,3253.6306,N,11707.3665,W,1,11,0.8,152.1,M,-35.3,M,,0000*69
$GPRMC,165405.000,A,3253.6306,N,11707.3770,W,43.45,269.45,160617,,*2E
$GPGGA,165405.000,3253.6306,N,11707.3770,W,1,11,0.8,152.0,M,-35.3,M,,0000*6C
$GPRMC,165406.000,A,3253.6305,N,11707.3880,W,45.42,269.40,160617,,*2D
$GPGGA,165406.000,3253.6305,N,11707.3880,W,1,11,0.8,151.9,M,-35.3,M,,0000*66
$GPRMC,165407.000,A,3253.6303,N,11707.3991,W,47.04,269.18,160617,,*23
$GPGGA,165407.000,3253.6303,N,11707.3991,W,1,11,0.8,151.7,M,-35.3,M,,0000*6E
$GPRMC,165408.000,A,3253.6302,N,11707.4105,W,49.72,269.04,160617,,*23
$GPGGA,165408.000,3253.6302,N,11707.4105,W,1,11,0.8,151.6,M,-35.3,M,,0000*63
$GPRMC,165409.000,A,3253.6300,N,11707.4222,W,51.74,268.95,160617,,*28
$GPGGA,165409.000,3253.6300,N,11707.4222,W,1,11,0.8,151.4,M,-35.3,M,,0000*64
$GPRMC,165410.000,A,3253.6298,N,11707.4343,W,53.81,269.12,160617,,*21
$GPGGA,165410.000,3253.6298,N,11707.4343,W,1,11,0.8,151.2,M,-35.3,M,,0000*6C
$GPRMC,165411.000,A,3253.6296,N,11707.4466,W,55.85,269.26,160617,,*2C
$GPGGA,165411.000,3253.6296,N,11707.4466,W,1,11,0.8,151.1,M,-35.3,M,,0000*60
$GPRMC,165412.000,A,3253.6295,N,11707.4593,W,57.74,269.25,160617,,*25
$GPGGA,165412.000,3253.6295,N,11707.4593,W,1,11,0.8,150.9,M,-35.3,M,,0000*62
$GPRMC,165413.000,A,3253.6293,N,11707.4722,W,59.65,269.18,160617,,*24
$GPGGA,165413.000,3253.6293,N,11707.4722,W,1,11,0.8,150.7,M,-35.3,M,,0000*63
$GPRMC,165414.000,A,3253.6292,N,11707.4849,W,61.29,269.48,160617,,*2D
$GPGGA,165414.000,3253.6292,N,11707.4849,W,1,11,0.8,150.6,M,-35.3,M,,0000*66
$GPRMC,165415.000,A,3253.6291,N,11707.4976,W,63.35,269.66,160617,,*23
$GPGGA,165415.000,3253.6291,N,11707.4976,W,1,11,0.8,150.4,M,-35.3,M,,0000*6B
$GPRMC,165416.000,A,3253.6290,N,11707.5104,W,65.77,269.52,160617,,*2C
$GPGGA,165416.000,3253.6290,N,11707.5104,W,1,11,0.8,150.2,M,-35.3,M,,0000*63
$GPRMC,165417.000,A,3253.6289,N,11707.5234,W,67.37,269.41,160617,,*22
$GPGGA,165417.000,3253.6289,N,11707.5234,W,1,11,0.8,150.1,M,-35.3,M,,0000*69
$GPRMC,165418.000,A,3253.6288,N,11707.5366,W,67.14,269.47,160617,,*23
$GPGGA,165418.000,3253.6288,N,11707.5366,W,1,11,0.8,149.9,M,-35.3,M,,0000*61
$GPRMC,165419.000,A,3253.6287,N,11707.5500,W,67.03,269.88,160617,,*2F
$GPGGA,165419.000,3253.6287,N,11707.5500,W,1,11,0.8,149.8,M,-35.3,M,,0000*68
$GPRMC,165420.000,A,3253.6288,N,11707.5638,W,67.96,271.04,160617,,*23
$GPGGA,165420.000,3253.6288,N,11707.5638,W,1,11,0.8,149.6,M,-35.3,M,,0000*6B
$GPRMC,165421.000,A,3253.6291,N,11707.5778,W,67.84,271.27,160617,,*2E
$GPGGA,165421.000,3253.6291,N,11707.5778,W,1,11,0.8,149.5,M,-35.3,M,,0000*64
$GPRMC,165422.000,A,3253.6293,N,11707.5921,W,67.23,270.71,160617,,*23
$GPGGA,165422.000,3253.6293,N,11707.5921,W,1,11,0.8,149.3,M,-35.3,M,,0000*61
$GPRMC,165423.000,A,3253.6294,N,11707.6064,W,67.02,270.45,160617,,*2A
$GPGGA,165423.000,3253.6294,N,11707.6064,W,1,11,0.8,149.1,M,-35.3,M,,0000*6E
$GPRMC,165424.000,A,3253.6295,N,11707.6207,W,67.10,270.17,160617,,*2F
$GPGGA,165424.000,3253.6295,N,11707.6207,W,1,11,0.8,148.9,M,-35.3,M,,0000*66
$GPRMC,165425.000,A,3253.6294,N,11707.6349,W,67.85,269.71,160617,,*21
$GPGGA,165425.000,3253.6294,N,11707.6349,W,1,11,0.8,148.6,M,-35.3,M,,0000*62
$GPRMC,165426.000,A,3253.6293,N,11707.6489,W,67.79,269.32,160617,,*29
$GPGGA,165426.000,3253.6293,N,11707.6489,W,1,11,0.8,148.4,M,-35.3,M,,0000*6F
$GPRMC,165427.000,A,3253.6292,N,11707.6623,W,67.02,269.42,160617,,*2F
$GPGGA,165427.000,3253.6292,N,11707.6623,W,1,11,0.8,148.1,M,-35.3,M,,0000*68
$GPRMC,165428.000,A,3253.6291,N,11707.6747,W,67.06,269.64,160617,,*2F
$GPGGA,165428.000,3253.6291,N,11707.6747,W,1,11,0.8,147.9,M,-35.3,M,,0000*60
$GPRMC,165429.000,A,3253.6290,N,11707.6862,W,67.24,269.56,160617,,*23
$GPGGA,165429.000,3253.6290,N,11707.6862,W,1,11,0.8,147.6,M,-35.3,M,,0000*67
$GPRMC,165430.000,A,3253.6289,N,11707.6968,W,67.01,268.86,160617,,*21
$GPGGA,165430.000,3253.6289,N,11707.6968,W,1,11,0.8,147.4,M,-35.3,M,,0000*6E
$GPRMC,165431.000,A,3253.6286,N,11707.7070,W,67.61,267.89,160617,,*29
$GPGGA,165431.000,3253.6286,N,11707.7070,W,1,11,0.8,147.3,M,-35.3,M,,0000*66
$GPRMC,165432.000,A,3253.6283,N,11707.7171,W,62.39,267.66,160617,,*23
$GPGGA,165432.000,3253.6283,N,11707.7171,W,1,11,0.8,147.1,M,-35.3,M,,0000*62
$GPRMC,165433.000,A,3253.6280,N,11707.7271,W,57.17,267.97,160617,,*20
$GPGGA,165433.000,3253.6280,N,11707.7271,W,1,11,0.8,147.0,M,-35.3,M,,0000*62
$GPRMC,165434.000,A,3253.6277,N,11707.7370,W,52.96,268.36,160617,,*2A
$GPGGA,165434.000,3253.6277,N,11707.7370,W,1,11,0.8,146.8,M,-35.3,M,,0000*64
$GPRMC,165435.000,A,3253.6275,N,11707.7469,W,47.75,269.00,160617,,*2F
$GPGGA,165435.000,3253.6275,N,11707.7469,W,1,11,0.8,146.7,M,-35.3,M,,0000*67
$GPRMC,165436.000,A,3253.6274,N,11707.7566,W,42.20,269.67,160617,,*22
$GPGGA,165436.000,3253.6274,N,11707.7566,W,1,11,0.8,146.6,M,-35.3,M,,0000*6A
$GPRMC,165437.000,A,3253.6274,N,11707.7659,W,37.07,269.84,160617,,*2A
$GPGGA,165437.000,3253.6274,N,11707.7659,W,1,11,0.8,146.6,M,-35.3,M,,0000*64
$GPRMC,165438.000,A,3253.6274,N,11707.7745,W,32.46,269.95,160617,,*2E
$GPGGA,165438.000,3253.6274,N,11707.7745,W,1,11,0.8,146.6,M,-35.3,M,,0000*67
$GPRMC,165439.000,A,3253.6274,N,11707.7821,W,27.72,270.41,160617,,*21
$GPGGA,165439.000,3253.6274,N,11707.7821,W,1,11,0.8,146.5,M,-35.3,M,,0000*68
$GPRMC,165440.000,A,3253.6274,N,11707.7881,W,22.46,270.18,160617,,*28
$GPGGA,165440.000,3253.6274,N,11707.7881,W,1,11,0.8,146.4,M,-35.3,M,,0000*6D
$GPRMC,165441.000,A,3253.6274,N,11707.7922,W,17,270.25,160617,,*11
$GPGGA,165441.000,3253.6274,N,11707.7922,W,1,11,0.8,146.3,M,-35.3,M,,0000*63
$GPRMC,165442.000,A,3253.6274,N,11707.7946,W,12.08,269.71,160617,,*28
$GPGGA,165442.000,3253.6274,N,11707.7946,W,1,11,0.8,146.2,M,-35.3,M,,0000*63
$GPRMC,165443.000,A,3253.6274,N,11707.7954,W,7.25,271.94,160617,,*13
$GPGGA,165443.000,3253.6274,N,11707.7954,W,1,11,0.8,146.1,M,-35.3,M,,0000*62
$GPRMC,165444.000,A,3253.6274,N,11707.7955,W,2.07,271.94,160617,,*12
$GPGGA,165444.000,3253.6274,N,11707.7955,W,1,11,0.8,146.0,M,-35.3,M,,0000*65
$GPRMC,165445.000,A,3253.6274,N,11707.7957,W,0.86,271.94,160617,,*1A
$GPGGA,165445.000,3253.6274,N,11707.7957,W,1,11,0.8,145.9,M,-35.3,M,,0000*6C
$GPRMC,165446.000,A,3253.6274,N,11707.7961,W,1.16,271.34,160617,,*1E
$GPGGA,165446.000,3253.6274,N,11707.7961,W,1,11,0.8,145.9,M,-35.3,M,,0000*6A
$GPRMC,165447.000,A,3253.6274,N,11707.7967,W,1.85,270.25,160617,,*12
$GPGGA,165447.000,3253.6274,N,11707.7967,W,1,11,0.8,145.8,M,-35.3,M,,0000*6C
$GPRMC,165448.000,A,3253.6274,N,11707.7975,W,2.35,270.84,160617,,*1D
$GPGGA,165448.000,3253.6274,N,11707.7975,W,1,11,0.8,145.7,M,-35.3,M,,0000*6F